city_name,lat,lon
canberra,-35.2802,149.1310
sydney,-33.8688,151.2093
darwin,-12.4637,130.8444
brisbane,-27.4705,153.0260
adelaide,-34.9285,138.6007
hobart,-42.8826,147.3257
melbourne,-37.8136,144.9631
perth,-31.9514,115.8617
